station_id,name,lat,lon
398,Atlantic Ave & Furman St,40.6917,-74
470,W 20 St & 8 Ave,40.7435,-74
263,Elizabeth St & Hester St,40.7173,-73.9964
3050,Putnam Ave & Throop Ave,40.6852,-73.9411
3565,36 Ave & 10 St,40.7614,-73.9411
444,Broadway & W 24 St,40.7424,-73.9892
3641,Broadway & W 25 St,40.7429,-73.9892
3306,10 St & 7 Ave,40.6662,-73.982
519,E 42 St & Vanderbilt Ave,40.7524,-73.9784
3365,3 St & 7 Ave,40.6704,-73.9784
3458,W 55 St & 6 Ave,40.7631,-73.9784
438,St Marks Pl & 1 Ave,40.7278,-73.9856
3166,Riverside Dr & W 72 St,40.7806,-73.9856
3166,Riverside Dr & W 72 St ,40.7806,-73.9856
3358,Garfield Pl & 8 Ave,40.6712,-73.9748
3468,NYCBS Depot - STY - Garage 4,40.7304,-73.9748
501,FDR Drive & E 35 St,40.7442,-73.9712
2017,E 43 St & 2 Ave,40.7502,-73.9712
3257,Adventures NYC,40.7738,-73.9712
464,E 56 St & 3 Ave,40.7593,-73.9676
3146,E 81 St & 3 Ave,40.7757,-73.9568
3149,E 82 St & 2 Ave,40.7752,-73.9532
3511,Adam Clayton Powell Blvd & W 115 St,40.8025,-73.9532
3649,W 129 St & Convent Ave,40.8144,-73.9532
3348,Coffey St & Conover St,40.6772,-74.0157
3120,Center Blvd & Borden Ave,40.7416,-73.9604
3120,Center BlvdÂ & Borden Ave,40.7416,-73.9604
3290,E 89 St & York Ave,40.7779,-73.946
3424,E 106 St & Lexington Ave,40.792,-73.946
3097,N Henry St & Richardson St,40.7192,-73.9424
3330,Henry St & Bay St,40.6725,-74.0049
3561,37 Ave & 35 St,40.7531,-73.928
233,Cadman Plaza W & Pierrepont St,40.6948,-73.9905
314,Cadman Plaza West & Montague St,40.6938,-73.9905
530,11 Ave & W 59 St,40.7715,-73.9905
297,E 15 St & 3 Ave,40.7342,-73.9869
423,W 54 St & 9 Ave,40.7658,-73.9869
3602,31 Ave & 34 St,40.7632,-73.9208
349,Rivington St & Ridge St,40.7185,-73.9833
298,3 Ave & Schermerhorn St,40.6868,-73.9797
476,E 31 St & 3 Ave,40.7439,-73.9797
507,E 25 St & 2 Ave,40.7391,-73.9797
527,E 33 St & 2 Ave,40.744,-73.9761
3016,Kent Ave & N 7 St,40.7204,-73.9617
258,DeKalb Ave & Vanderbilt Ave,40.6894,-73.9689
366,Clinton Ave & Myrtle Ave,40.6933,-73.9689
3253,Bike The Branches - Central Branch,40.6728,-73.9689
3036,8D OPS 01,40.518,-74.0314
389,Broadway & Berry St,40.7104,-73.9653
3134,3 Ave & E 62 St,40.7631,-73.9653
3124,46 Ave & 5 St,40.7473,-73.9545
3182,Yankee Ferry Terminal,40.6869,-74.017
372,Franklin Ave & Myrtle Ave,40.6945,-73.9581
3055,Greene Ave & Nostrand Ave,40.6883,-73.9509
3121,Jackson Ave & 46 Rd,40.7452,-73.9473
3327,3 Ave & E 100 St,40.7877,-73.9473
3586,34 Ave & 13 St,40.7639,-73.9365
3061,Throop Ave & Myrtle Ave,40.6962,-73.9437
3067,Broadway & Whipple St,40.7017,-73.9437
3425,2 Ave  & E 104 St,40.7892,-73.9437
3425,2 Ave & E 104 St,40.7892,-73.9437
346,Bank St & Hudson St,40.7365,-74.0062
284,Greenwich Ave & 8 Ave,40.739,-74.0026
3441,10 Hudson Yards,40.753,-74.0026
3242,Schermerhorn St & Court St,40.691,-73.9918
3515,24 Ave & 26 St,40.7746,-73.9185
324,DeKalb Ave & Hudson Ave,40.6899,-73.981
174,E 25 St & 1 Ave,40.7382,-73.9774
3049,Cambridge Pl & Gates Ave,40.6849,-73.963
3538,W 110 St & Amsterdam Ave,40.8027,-73.963
3528,Steinway St & 23 Ave,40.7714,-73.9077
396,Lefferts Pl & Franklin Ave,40.6803,-73.9558
3282,5 Ave & E 88 St,40.7831,-73.9594
3309,E 97 St & 3 Ave,40.7859,-73.9486
3554,Vernon Blvd & 41 Rd,40.7552,-73.9486
347,W Houston St & Hudson St,40.7287,-74.0075
3472,W 15 St & 10 Ave,40.7428,-74.0075
3286,E 89 St & 3 Ave,40.7806,-73.9522
3041,Kingston Ave & Herkimer St,40.6789,-73.9414
383,Greenwich Ave & Charles St,40.7352,-74.0003
3575,Crescent St & 34 Ave,40.7611,-73.9306
3610,Vernon Blvd & 30 Rd,40.7708,-73.9342
3245,NYCBS DEPOT - DELANCEY,40.7164,-73.9823
3360,Amsterdam Ave & W 79 St,40.7829,-73.9787
3361,Carroll St & 6 Ave,40.6741,-73.9787
3526,31 St & 23 Ave,40.7748,-73.9126
3136,5 Ave & E 63 St,40.7665,-73.9715
3136,5 Ave & E 63 St,40.7664,-73.9715
3016,Mobile 01,40.7711,-73.9643
3139,E 72 St & Park Ave,40.7712,-73.9643
3143,5 Ave & E 78 St,40.7763,-73.9643
3302,Columbus Ave & W 103 St,40.7969,-73.9643
3362,Madison Ave & E 82 St,40.7781,-73.9607
3539,W 116 St & Amsterdam Ave,40.8068,-73.9607
3553,Frederick Douglass Blvd & W 112 St,40.8017,-73.9571
3060,Willoughby Ave & Tompkins Ave,40.6943,-73.9463
3352,Sigourney St & Columbia St,40.6727,-74.0088
3140,1 Ave & E 78 St,40.7714,-73.9535
3156,E 72 St & York Ave,40.7666,-73.9535
3611,Vernon Blvd & 47 Rd,40.7449,-73.9535
3020,NYCBS Test,40.6466,-74.016
3237,21 St & 41 Ave,40.7538,-73.9427
458,11 Ave & W 27 St,40.7514,-74.0052
3559,21 St & 38 Ave,40.7576,-73.9391
3567,11 St & 35 Ave,40.7627,-73.9391
3311,Columbia St & Kane St,40.6876,-74.0016
3653,31 St & 35 Ave,40.7582,-73.9283
293,Lafayette St & E 8 St,40.7303,-73.9908
3263,Cooper Square & Astor Pl,40.7295,-73.9908
3332,Degraw St & Hoyt St,40.682,-73.9908
3609,Vernon Blvd & 31 Ave,40.7692,-73.9355
254,W 11 St & 6 Ave,40.7353,-73.998
3303,Butler St & Court St,40.685,-73.9944
261,Johnson St & Gold St,40.6947,-73.9836
3178,Riverside Dr & W 78 St,40.7841,-73.9836
392,Jay St & Tech Pl,40.6951,-73.9872
533,Broadway & W 39 St,40.753,-73.9872
533,Broadway & W 38 St,40.753,-73.9872
393,E 5 St & Avenue C,40.723,-73.98
3300,Prospect Park West & 8 St,40.6651,-73.9764
275,Washington Ave & Greene Ave,40.6865,-73.9656
440,E 45 St & 3 Ave,40.7526,-73.9728
3170,W 84 St & Columbus Ave,40.785,-73.9728
397,Fulton St & Clermont Ave,40.6842,-73.9692
3438,E 76 St & 3 Ave,40.7722,-73.9584
3379,E 103 St & Lexington Ave,40.7903,-73.9476
3340,Wolcott St & Dwight St,40.6753,-74.0101
3436,Greenwich St & Hubert St,40.7213,-74.0101
3101,N 12 St & Bedford Ave,40.7208,-73.9548
3372,E 74 St & 1 Ave,40.769,-73.9548
380,W 4 St & 7 Ave S,40.734,-74.0029
3081,Graham Ave & Grand St,40.7119,-73.944
316,Fulton St & William St,40.7096,-74.0065
3394,Columbia St & W 9 St,40.677,-74.0065
294,Washington Square E,40.7305,-73.9957
482,W 15 St & 7 Ave,40.7394,-73.9993
505,6 Ave & W 33 St,40.749,-73.9885
526,E 33 St & 5 Ave,40.7477,-73.9849
394,E 9 St & Avenue C,40.7252,-73.9777
511,E 14 St & Avenue B,40.7294,-73.9777
239,Willoughby St & Fleet St,40.692,-73.9813
502,Henry St & Grand St,40.7142,-73.9813
3169,Riverside Dr & W 82 St,40.7872,-73.9813
3307,West End Ave & W 94 St,40.7942,-73.9741
3367,5 Ave & E 103 St,40.7923,-73.9525
3296,E 93 St & 2 Ave,40.7825,-73.9489
3452,Bayard St & Leonard St,40.7192,-73.9489
3606,49 Ave & 21 St,40.7425,-73.9489
3080,S 4 St & Rodney St,40.7093,-73.9561
459,W 20 St & 11 Ave,40.7467,-74.0078
3527,5 Ave & E 126 St,40.807,-73.9417
3636,Expansion Warehouse 333 Johnson Ave,40.7077,-73.9345
296,Division St & Bowery,40.7141,-73.997
345,W 13 St & 6 Ave,40.7365,-73.997
375,Mercer St & Bleecker St S,40.7268,-73.997
375,Mercer St & Bleecker St,40.7268,-73.997
3621,27 Ave & 9 St,40.774,-73.9309
391,Clark St & Henry St,40.6976,-73.9934
439,E 4 St & 2 Ave,40.7263,-73.9898
3399,7 St & 3 Ave,40.6726,-73.9898
3513,21 St & Hoyt Ave S,40.7746,-73.9237
3570,35 Ave & 37 St,40.7557,-73.9237
3411,Bond St & Bergen St,40.685,-73.9862
536,1 Ave & E 30 St,40.7414,-73.9754
356,Bialystoker Pl & Delancey St,40.7162,-73.9826
418,Front St & Gold St,40.7022,-73.9826
431,Hanover Pl & Livingston St,40.6886,-73.9826
3158,W 63 St & Broadway,40.7716,-73.9826
3413,Wyckoff St & 3 Ave,40.6828,-73.9826
3466,W 45 St & 6 Ave,40.7567,-73.9826
467,Dean St & 4 Ave,40.6831,-73.979
3164,Columbus Ave & W 72 St,40.7771,-73.979
270,Adelphi St & Myrtle Ave,40.6931,-73.9718
3366,West End Ave & W 107 St,40.8021,-73.9682
534,Water - Whitehall Plaza,40.7026,-74.0127
3085,Roebling St & N 4 St,40.7147,-73.9574
3543,Morningside Dr & Amsterdam Ave,40.8103,-73.9574
344,Monroe St & Bedford Ave,40.6851,-73.9538
373,Willoughby Ave & Walworth St,40.6933,-73.9538
3040,SSP Tech Workshop,40.6467,-74.0163
3245,Kiosk in a box Motivate,40.6467,-74.0163
3385,2 Ave & E 105 St,40.7898,-73.943
3503,Madison Ave & E 120 St,40.803,-73.943
224,Spruce St & Nassau St,40.7115,-74.0055
320,Leonard St & Church St,40.7176,-74.0055
404,9 Ave & W 14 St,40.7406,-74.0055
146,Hudson St & Reade St,40.7163,-74.0091
152,Warren St & Church St,40.7147,-74.0091
3255,8 Ave & W 31 St,40.7506,-73.9947
3326,Clinton St & Centre St,40.6743,-74.0019
3052,Lewis Ave & Madison St,40.6863,-73.9358
3614,Crescent St & 30 Ave,40.7687,-73.925
362,Broadway & W 37 St,40.7517,-73.9875
503,E 20 St & Park Ave,40.7383,-73.9875
3176,W 64 St & West End Ave,40.7745,-73.9875
3612,30 Ave & 21 St,40.7704,-73.9286
274,Lafayette Ave & Fort Greene Pl,40.6869,-73.9767
411,E 6 St & Avenue D,40.7223,-73.9767
538,E 48 St & Madison Ave,40.7567,-73.9767
3171,Amsterdam Ave & W 82 St,40.7852,-73.9767
3219,NYCBS Depot - STY,40.7292,-73.9767
3243,E 58 St & 1 Ave,40.7589,-73.9623
3117,Franklin St & Dupont St,40.7356,-73.9587
454,E 51 St & 1 Ave,40.7546,-73.9659
460,S 4 St & Wythe Ave,40.7129,-73.9659
3231,E 67 St & Park Ave,40.7678,-73.9659
3115,India St & Manhattan Ave,40.7323,-73.9551
3520,Adam Clayton Powell Blvd & W 118 St,40.8044,-73.9515
3108,Nassau Ave & Russell St,40.7256,-73.9443
3501,E 118 St & Madison Ave,40.8015,-73.9443
212,W 16 St & The High Line,40.7433,-74.0068
3053,Marcy Ave & Lafayette Ave,40.6901,-73.9479
3084,Devoe St & Leonard St,40.7135,-73.9479
195,Liberty St & Broadway,40.7091,-74.0104
329,Greenwich St & North Moore St,40.7202,-74.0104
406,Hicks St & Montague St,40.6951,-73.996
3384,Smith St & 3 St,40.6787,-73.996
3427,Lafayette St & Jersey St,40.7243,-73.996
3435,Grand St & Elizabeth St,40.7188,-73.996
3129,Queens Plaza North & Crescent St,40.7511,-73.9407
3395,Henry St & W 9 St,40.6764,-74.0032
3042,Fulton St & Utica Ave,40.6794,-73.9299
496,E 16 St & 5 Ave,40.7373,-73.9924
3403,4 Ave & 9 St,40.6705,-73.9888
410,Suffolk St & Stanton St,40.7207,-73.9852
447,8 Ave & W 52 St,40.7637,-73.9852
153,E 40 St & 5 Ave,40.7521,-73.9816
119,Park Ave & St Edwards St,40.6961,-73.978
271,Ashland Pl & Hanson Pl,40.6852,-73.978
318,E 43 St & Vanderbilt Ave,40.7532,-73.978
517,Pershing Square S,40.7515,-73.978
3648,Flushing Ave & Vanderbilt Ave,40.698,-73.9708
3469,India St & West St,40.7318,-73.96
305,E 58 St & 3 Ave,40.761,-73.9672
3320,Central Park West & W 100 St,40.7934,-73.9636
409,DeKalb Ave & Skillman St,40.6906,-73.9564
3118,McGuinness Blvd & Eagle St,40.7356,-73.9528
3492,E 118 St & Park Ave,40.8005,-73.942
462,W 22 St & 10 Ave,40.7469,-74.0045
3531,Frederick Douglass Blvd & W 129 St,40.8126,-73.9492
260,Broad St & Bridge St,40.7037,-74.0117
405,Washington St & Gansevoort St,40.7393,-74.0081
3589,Broadway & 12 St,40.7668,-73.9348
334,W 20 St & 7 Ave,40.7424,-73.9973
3498,Pleasant Ave & E 120 St,40.7975,-73.9312
488,W 39 St & 9 Ave,40.7565,-73.9937
3514,Astoria Park S & Shore Blvd,40.7767,-73.9276
232,Cadman Plaza E & Tillary St,40.696,-73.9901
497,E 17 St & Broadway,40.737,-73.9901
3603,31 Ave & 30 St,40.7647,-73.924
3000,MLSWKiosk,40.7555,-73.9865
493,W 45 St & 6 Ave (1),40.7568,-73.9829
493,W 45 St & 6 Ave,40.7568,-73.9829
3175,W 70 St & Amsterdam Ave,40.7775,-73.9829
522,E 51 St & Lexington Ave,40.7571,-73.9721
3457,E 58 St & Madison Ave,40.763,-73.9721
266,Avenue D & E 8 St,40.7237,-73.9757
487,E 20 St & FDR Drive,40.7331,-73.9757
3414,Bergen St & Flatbush Ave,40.6809,-73.9757
3016,Kent Ave & N 7 St,40.7207,-73.9613
3545,Broadway & W 122 St,40.8121,-73.9613
3355,E 66 St & Madison Ave,40.768,-73.9685
384,Fulton St & Washington Ave,40.683,-73.9649
3133,E 67 St & Park Ave,40.7674,-73.9649
3133,E 67 St & Lexington Ave,40.7673,-73.9649
3552,W 113 St & Broadway,40.806,-73.9649
3119,Vernon Blvd & 50 Ave,40.7423,-73.9541
3147,E 85 St & 3 Ave,40.778,-73.9541
3579,Sterling Pl & Bedford Ave,40.6727,-73.9541
327,Vesey Pl & River Terrace,40.7153,-74.0166
3239,Bressler,40.6465,-74.0166
3135,E 75 St & 3 Ave,40.7711,-73.9577
3145,E 84 St & Park Ave,40.7786,-73.9577
3584,Eastern Pkwy & Franklin Ave,40.6708,-73.9577
319,Park Pl & Church St,40.7134,-74.0094
319,Fulton St & Broadway,40.7111,-74.0094
3126,44 Dr & Jackson Ave,40.7472,-73.9433
320,Church St & Leonard St,40.7174,-74.0058
3325,E 95 St & 3 Ave,40.7849,-73.9505
309,Murray St & West St,40.715,-74.013
3507,Park Ave & E 124 St,40.8046,-73.9397
3556,24 St & 41 Ave,40.7527,-73.9397
3258,W 27 St & 10 Ave,40.7502,-74.0022
466,W 25 St & 6 Ave,40.744,-73.9914
523,W 38 St & 8 Ave,40.7547,-73.9914
340,Madison St & Clinton St,40.7127,-73.9878
428,E 3 St & 1 Ave,40.7247,-73.9878
3373,3 St & 3 Ave,40.6751,-73.9878
3040,GOW Tech Shop,40.6698,-73.995
433,E 13 St & Avenue A,40.7296,-73.9806
245,Myrtle Ave & St Edwards St,40.6933,-73.977
3437,Riverside Dr & W 91 St,40.7931,-73.977
518,E 39 St & 2 Ave,40.7478,-73.9734
3316,W 104 St & Amsterdam Ave,40.799,-73.9662
481,S 3 St & Bedford Ave,40.7126,-73.9626
3144,E 81 St & Park Ave,40.7768,-73.959
3547,Broadway & Moylan Pl,40.8143,-73.959
3585,Union St & Bedford Ave,40.6692,-73.9554
427,State St,40.7025,-74.0143
3069,Lorimer St & Broadway,40.7041,-73.9482
3089,Leonard St & Meeker Ave,40.7173,-73.9482
3456,Jackson St & Leonard St,40.7164,-73.9482
358,Christopher St & Greenwich St,40.7329,-74.0071
3083,Bushwick Ave & Powers St,40.7125,-73.941
3389,Carroll St & Columbia St,40.683,-74.0035
3489,Gold St & Frankfort St,40.7107,-74.0035
3588,Vernon Blvd & 10 St,40.7672,-73.9374
223,W 13 St & 7 Ave,40.7378,-73.9999
3388,President St & Henry St,40.6828,-73.9999
310,State St & Smith St,40.6893,-73.9891
312,Allen St & E Houston St,40.7221,-73.9891
312,Allen St & Stanton St,40.7221,-73.9891
3512,27 Ave & 4 St,40.7747,-73.9338
531,Forsyth St & Broome St,40.7189,-73.9927
3313,6 Ave & 12 St,40.6663,-73.9855
317,E 6 St & Avenue B,40.7245,-73.9819
468,Broadway & W 56 St,40.7653,-73.9819
468,Broadway & W 55 St,40.7653,-73.9819
472,E 32 St & Park Ave,40.7457,-73.9819
499,Broadway & W 60 St,40.7692,-73.9819
3019,NYCBS Depot - DEL,40.7166,-73.9819
160,E 37 St & Lexington Ave,40.7482,-73.9783
3285,W 87 St & Amsterdam Ave,40.7884,-73.9747
3285,W 87 St  & Amsterdam Ave,40.7884,-73.9747
3485,NYCBS Depot - RIS,40.7252,-73.9747
3143,5 Ave & E 78 St,40.7768,-73.9639
3132,E 59 St & Madison Ave,40.7635,-73.9711
3331,Riverside Dr & W 104 St,40.8013,-73.9711
3418,Plaza St West & Flatbush Ave,40.675,-73.9711
313,Washington Ave & Park Ave,40.6961,-73.9675
3631,Crown St & Bedford Ave,40.6666,-73.9567
3128,21 St & 43 Ave,40.7505,-73.9459
3312,1 Ave & E 94 St,40.7817,-73.9459
3535,Mt Morris Park W & W 120 St,40.804,-73.9459
337,Old Slip & Front St,40.7038,-74.0084
3245,"Industry City, Building 1 Basement",40.6559,-74.0084
3508,St Nicholas Ave & Manhattan Ave,40.8097,-73.9531
3062,Myrtle Ave & Marcy Ave,40.6954,-73.9495
3387,E 106 St & Madison Ave,40.7934,-73.9495
3337,Dwight St & Van Dyke St,40.6736,-74.012
3494,E 115 St & Lexington Ave,40.7979,-73.9423
247,Perry St & Bleecker St,40.7354,-74.0048
335,Washington Pl & Broadway,40.729,-73.994
408,Market St & Cherry St,40.7108,-73.994
3322,12 St & 4 Ave,40.6686,-73.9904
3377,Carroll St & Bond St,40.6786,-73.9904
524,W 43 St & 6 Ave,40.7553,-73.9832
540,Lexington Ave & E 26 St,40.7415,-73.9832
3573,35 St & 34 Ave,40.7581,-73.9243
474,5 Ave & E 29 St,40.7452,-73.9868
167,E 39 St & 3 Ave,40.7489,-73.976
3165,Central Park West & W 72 St,40.7758,-73.976
372,Franklin Ave & Myrtle Ave,40.6945,-73.958
3075,Division Ave & Marcy Ave,40.7071,-73.958
3114,India St & East River,40.7317,-73.9616
3318,2 Ave & E 96 St,40.784,-73.9472
328,Watts St & Greenwich St,40.7241,-74.0097
3073,Division Ave & Hooper St,40.7069,-73.9544
3238,E 80 St & 2 Ave,40.7739,-73.9544
351,Front St & Maiden Ln,40.7053,-74.0061
257,Lispenard St & Broadway,40.7194,-74.0025
446,W 24 St & 7 Ave,40.7449,-73.9953
3625,28 St & 40 Ave,40.7526,-73.9364
498,Broadway & W 32 St,40.7485,-73.9881
173,Broadway & W 49 St,40.7607,-73.9845
3486,Schermerhorn St & Bond St,40.6884,-73.9845
242,Carlton Ave & Flushing Ave,40.6978,-73.9737
262,Washington Park,40.6918,-73.9737
281,Grand Army Plaza & Central Park S,40.7644,-73.9737
3160,Central Park West & W 76 St,40.779,-73.9737
3516,31 St & Astoria Blvd,40.7699,-73.9184
150,E 2 St & Avenue C,40.7209,-73.9809
3162,W 78 St & Broadway,40.7834,-73.9809
3167,Amsterdam Ave & W 73 St,40.7797,-73.9809
3161,W 76 St & Columbus Ave,40.7802,-73.9773
3155,Lexington Ave & E 63 St,40.7644,-73.9665
3105,N 15 St & Wythe Ave,40.7241,-73.9557
3036,8D OPS 01,40.6849,-74.0254
3479,Picnic Point,40.6851,-74.0254
120,Lexington Ave & Classon Ave,40.6868,-73.9593
3594,Montgomery St & Franklin Ave OLD,40.6662,-73.9593
3107,Bedford Ave & Nassau Ave,40.7231,-73.9521
3127,9 St & 44 Rd,40.7497,-73.9521
3076,Scholes St & Manhattan Ave,40.7087,-73.9449
3094,Graham Ave & Withers St,40.717,-73.9449
3179,Park Ave & Marcus Garvey Blvd,40.6986,-73.9413
3618,27 St & Hunter St,40.7485,-73.9413
495,W 47 St & 10 Ave,40.7627,-73.993
82,St James Pl & Pearl St,40.7112,-74.0002
3260,Mercer St & Bleecker St,40.7271,-73.9966
2000,Front St & Washington St,40.7026,-73.9894
359,E 47 St & Park Ave,40.7551,-73.975
540,Lexington Ave & E 29 St,40.7431,-73.9822
3523,24 Ave & 29 St,40.7729,-73.9161
3445,Riverside Dr & W 89 St,40.7918,-73.9786
516,E 47 St & 1 Ave,40.7521,-73.9678
3226,W 82 St & Central Park West,40.7828,-73.9714
3462,E 44 St & 2 Ave,40.7512,-73.9714
3078,Broadway & Roebling St,40.7092,-73.9606
3323,W 106 St & Central Park West,40.7982,-73.9606
3375,3 Ave & E 72 St,40.7699,-73.9606
3599,Franklin Ave & Empire Blvd,40.6631,-73.9606
471,Grand St & Havemeyer St,40.7129,-73.957
3048,Putnam Ave & Nostrand Ave,40.684,-73.9498
3071,Boerum St & Broadway,40.7054,-73.9498
3125,45 Rd & 11 St,40.7471,-73.9498
259,South St & Whitehall St,40.7012,-74.0123
3224,W 13 St & Hudson St,40.74,-74.0051
116,W 17 St & 8 Ave,40.7418,-74.0015
348,W Broadway & Spring St,40.7249,-74.0015
3229,Marcy Ave & MacDonough St,40.6806,-73.9462
3478,2 Ave & 36 St - Citi Bike HQ at Industry City,40.6571,-74.0087
3123,31 St & Thomson Ave,40.7447,-73.9354
448,W 37 St & 10 Ave,40.7566,-73.9979
3321,Clinton St & Union St,40.6831,-73.9979
3398,Smith St & 9 St,40.6747,-73.9979
285,Broadway & E 14 St,40.7345,-73.9907
403,E 2 St & 2 Ave,40.725,-73.9907
3619,Newtown Ave & 23 St,40.7714,-73.9246
218,Gallatin Pl & Livingston St,40.6903,-73.9871
236,St Marks Pl & 2 Ave,40.7284,-73.9871
2001,Sands St & Navy St,40.6998,-73.9799
3235,E 41 St & Madison Ave,40.7522,-73.9799
3297,6 St & 7 Ave,40.6687,-73.9799
83,Atlantic Ave & Fort Greene Pl,40.6838,-73.9763
341,Stanton St & Mangin St,40.7178,-73.9763
2006,Central Park S & 6 Ave,40.7659,-73.9763
3368,5 Ave & 3 St,40.6728,-73.9835
416,Cumberland St & Lafayette Ave,40.6875,-73.9727
455,1 Ave & E 44 St,40.75,-73.9691
3264,E 61 St & Park Ave,40.7642,-73.9691
3341,Central Park West & W 102 St,40.7953,-73.9619
3116,Huron St & Franklin St,40.7327,-73.9583
3534,Frederick Douglass Blvd & W 117 St,40.8052,-73.9547
304,Broadway & Battery Pl,40.7046,-74.0136
514,12 Ave & W 40 St,40.7609,-74.0028
3100,Nassau Ave & Newell St,40.7248,-73.9475
3252,Bike The Branches - Red Hook Branch,40.6753,-74.01
453,W 22 St & 8 Ave,40.7448,-73.9992
3259,9 Ave & W 28 St,40.7494,-73.9992
3315,Henry St & Degraw St,40.6848,-73.9992
382,University Pl & E 14 St,40.7349,-73.992
3402,Court St & State St,40.6902,-73.992
3593,31 St & Broadway,40.7616,-73.9259
278,Concord St & Bridge St,40.6977,-73.9848
291,Madison St & Montgomery St,40.7131,-73.9848
3643,E 41 St & 5 Ave,40.7527,-73.9812
3283,W 89 St & Columbus Ave,40.7882,-73.9704
3350,W 100 St & Broadway,40.7974,-73.9704
456,E 53 St & Madison Ave,40.7597,-73.974
3542,Amsterdam Ave & W 119 St,40.8086,-73.9596
3562,Classon Ave & St Marks Ave,40.6765,-73.9596
2002,Wythe Ave & Metropolitan Ave,40.7169,-73.9632
3580,St Johns Pl & Washington Ave,40.6737,-73.9632
3063,Nostrand Ave & Myrtle Ave,40.6953,-73.9524
3096,Union Ave & N 12 St,40.7192,-73.9524
3345,Madison Ave & E 99 St,40.7895,-73.9524
3254,Soissons Landing,40.6923,-74.0149
3644,Van Dyke St & Van Brunt St,40.6758,-74.0149
3090,N 8 St & Driggs Ave,40.7177,-73.956
3284,E 88 St & Park Ave,40.7814,-73.956
3057,Kosciuszko St & Tompkins Ave,40.6913,-73.9452
3518,Lenox Ave & W 126 St,40.8084,-73.9452
248,Laight St & Hudson St,40.7219,-74.0077
3351,E 102 St & 1 Ave,40.787,-73.9416
3551,3 Ave & E 112 St,40.7955,-73.9416
3474,6 Ave & Spring St,40.7253,-74.0041
3091,Frost St & Meeker St,40.7176,-73.9488
3288,E 88 St & 1 Ave,40.7783,-73.9488
3256,Pier 40 - Hudson River Park,40.7277,-74.0113
3230,Penn Station Valet,40.7513,-73.9969
3450,Penn Station Valet - Valet Scan,40.7513,-73.9969
3046,Marcus Garvey Blvd & Macon St,40.6826,-73.938
321,Cadman Plaza E & Red Cross Pl,40.6999,-73.9897
3591,21 St & 31 Dr,40.7659,-73.9308
3324,3 Ave & 14 St,40.6685,-73.9933
3401,2 Ave & 9 St,40.6725,-73.9933
3328,W 100 St & Manhattan Ave,40.795,-73.9645
532,S 5 Pl & S 5 St,40.7105,-73.9609
532,S 5 Pl & S 4 St,40.7105,-73.9609
3142,1 Ave & E 62 St,40.7612,-73.9609
3582,Lincoln Pl & Classon Ave,40.6722,-73.9609
3301,Columbus Ave & W 95 St,40.792,-73.9681
249,Harrison St & Hudson St,40.7187,-74.009
3509,Lenox Ave & W 115 St,40.8012,-73.9501
3642,E 98 St & Lexington Ave,40.7873,-73.9501
489,10 Ave & W 28 St,40.7507,-74.0018
3566,Crescent St & 35 Ave,40.7596,-73.9321
168,W 18 St & 6 Ave,40.7397,-73.9946
515,W 43 St & 10 Ave,40.7601,-73.9946
3432,NYCBS Depot - GOW,40.6691,-73.9946
3266,Kiosk in a box Deployment,40.7086,-73.9285
293,Lafayette St & E 8 St,40.7302,-73.991
529,W 42 St & 8 Ave,40.7576,-73.991
432,E 7 St & Avenue A,40.7262,-73.9838
3250,NYCBS Depot - PIT,40.7169,-73.9838
3304,6 Ave & 9 St,40.6681,-73.9838
342,Columbia St & Rivington St,40.7174,-73.9802
2003,1 Ave & E 18 St,40.7342,-73.9802
354,Emerson Pl & Myrtle Ave,40.6936,-73.9622
3131,E 68 St & 3 Ave,40.7671,-73.9622
3376,E 65 St & 2 Ave,40.7647,-73.9622
3378,E 76 St & Park Ave,40.7738,-73.9622
3574,Prospect Pl & Underhill Ave,40.677,-73.9658
3154,E 77 St & 3 Ave,40.7731,-73.9586
79,Franklin St & W Broadway,40.7191,-74.0067
127,Barrow St & Hudson St,40.7317,-74.0067
315,South St & Gouverneur Ln,40.7036,-74.0067
3082,Hope St & Union Ave,40.7117,-73.9514
427,Bus Slip & State St,40.7019,-74.0139
3400,E 110 St & Madison Ave,40.7962,-73.9478
303,Mercer St & Spring St,40.7236,-73.9995
3068,Humboldt St & Varet St,40.7032,-73.9406
3568,34 St & 35 Ave,40.7569,-73.9262
3246,Montague St & Clinton St,40.6943,-73.9923
3364,Carroll St & 5 Ave,40.6752,-73.9815
3419,Douglass St & 4 Ave,40.6793,-73.9815
353,S Portland Ave & Hanson Pl,40.6854,-73.9743
527,E 33 St & 1 Ave,40.7432,-73.9743
367,E 53 St & Lexington Ave,40.7583,-73.9707
302,Avenue D & E 3 St,40.7208,-73.9779
517,Pershing Square South,40.7516,-73.9779
538,W 49 St & 5 Ave,40.758,-73.9779
3429,Hanson Pl & Ashland Pl,40.6851,-73.9779
3431,E 35 St & 3 Ave,40.7465,-73.9779
3581,Underhill Ave & Lincoln Pl,40.674,-73.9671
3453,Devoe St & Lorimer St,40.7134,-73.9491
3338,2 Ave & E 99 St,40.7863,-73.9455
225,W 14 St & The High Line,40.742,-74.008
463,9 Ave & W 16 St,40.7421,-74.0044
3496,1 Ave & E 110 St,40.7923,-73.9383
3381,3 St & Hoyt St,40.6777,-73.9936
401,Allen St & Rivington St,40.7202,-73.99
477,W 41 St & 8 Ave,40.7564,-73.99
151,Cleveland Pl & Spring St,40.7221,-73.9972
151,Cleveland Pl & Spring St,40.7218,-73.9972
494,W 26 St & 8 Ave,40.7473,-73.9972
3335,Union St & 4 Ave,40.6773,-73.9828
282,Kent Ave & S 11 St,40.7076,-73.9684
290,2 Ave & E 58 St,40.7602,-73.9648
399,Lafayette Ave & St James Pl,40.6885,-73.9648
3295,Central Park W & W 96 St,40.7913,-73.9648
436,Hancock St & Bedford Ave,40.6822,-73.954
255,NYCBS Depot - SSP,40.6468,-74.0165
3152,3 Ave & E 71 St,40.7687,-73.9612
3102,Driggs Ave & Lorimer St,40.7218,-73.9504
3369,E 82 St & East End Ave,40.7725,-73.9468
415,Pearl St & Hanover Square,40.7047,-74.0093
3390,E 109 St & 3 Ave,40.7933,-73.9432
377,6 Ave & Canal St,40.7224,-74.0057
3391,E 106 St & 1 Ave,40.7893,-73.9396
368,Carmine St & 6 Ave,40.7304,-74.0021
525,W 34 St & 11 Ave,40.7559,-74.0021
479,9 Ave & W 45 St,40.7602,-73.9913
252,MacDougal St & Washington Sq,40.7323,-73.9985
308,St James Pl & Oliver St,40.7131,-73.9985
3244,University Pl & E 8 St,40.7314,-73.9949
3470,Expansion Tech Station,40.6698,-73.9949
3470,Gowanus Tech Station,40.6698,-73.9949
414,Pearl St & Anchorage Pl,40.7028,-73.9877
3407,Union St & Nevins St,40.6791,-73.9877
3464,W 37 St & Broadway,40.7523,-73.9877
3572,34 Ave & 38 St,40.7569,-73.9216
395,Bond St & Schermerhorn St,40.6881,-73.9841
537,Lexington Ave & E 24 St,40.7403,-73.9841
2001,7 Ave & Farragut St,40.6989,-73.9733
2003,1 Ave & E 18 St,40.7338,-73.9805
3291,Riverside Dr & W 91 St,40.7934,-73.9769
3432,Bike in Movie Night | Prospect Park Bandshell,40.663,-73.9769
420,Clermont Ave & Lafayette Ave,40.6876,-73.9697
3294,E 91 St & Park Ave,40.7835,-73.9553
3477,39 St & 2 Ave - Citi Bike HQ at Industry City,40.6554,-74.0106
3490,E 116 St & 2 Ave,40.7969,-73.9373
3647,48 Ave & 30 Pl,40.7413,-73.9373
3488,8D QC Station 01,45.5064,-73.5695
3086,Graham Ave & Conselyea St,40.7151,-73.9445
3157,East End Ave & E 86 St,40.7752,-73.9445
263,Elizabeth St & Hester St,40.7176,-73.9962
3404,7 St & 5 Ave,40.6705,-73.9854
3605,31 Ave & Crescent St,40.7658,-73.9265
3319,14 St & 5 Ave,40.6663,-73.989
3421,Hoyt St & Warren St,40.6844,-73.989
160,E 37 St & Lexington Ave,40.4453,-73.9782
3522,37 St & 24 Ave,40.7701,-73.9121
2005,Railroad Ave & Kay Ave,40.7053,-73.971
3537,Carlton Ave & Dean St,40.681,-73.971
441,E 52 St & 2 Ave,40.756,-73.9674
364,Lafayette Ave & Classon Ave,40.689,-73.9602
539,Metropolitan Ave & Bedford Ave,40.7153,-73.9602
3110,Meserole Ave & Manhattan Ave,40.7271,-73.953
3550,Convent Ave & W 129 St,40.8141,-73.953
3510,Adam Clayton Powell Blvd & W 123 St,40.8078,-73.9494
3430,Richardson St & N Henry St,40.7191,-73.9422
2004,6 Ave & Broome St,40.7244,-74.0047
3491,E 118 St & 1 Ave,40.7975,-73.935
72,W 52 St & 11 Ave,40.7673,-73.9939
442,W 27 St & 7 Ave,40.7466,-73.9939
490,8 Ave & W 33 St,40.7516,-73.9939
237,E 11 St & 2 Ave,40.7305,-73.9867
3517,31 St & Hoyt Ave N,40.7712,-73.917
3617,28 Ave & 35 St,40.7671,-73.917
332,Cherry St,40.7122,-73.9795
3423,West Drive & Prospect Park West,40.6611,-73.9795
365,Fulton St & Grand Ave,40.6822,-73.9615
3104,Kent Ave & N 7 St,40.7206,-73.9615
3104,KentAve&N7 St,40.7206,-73.9615
3148,E 84 St & 1 Ave,40.7757,-73.9507
426,West St & Chambers St,40.7175,-74.0132
2008,Little West St & 1 Pl,40.7057,-74.0168
3059,Pulaski St & Marcus Garvey Blvd,40.6934,-73.9399
3646,35 Ave & 10 St,40.7632,-73.9399
3422,Columbia St & Degraw St,40.6859,-74.0024
3066,Tompkins Ave & Hopkins St,40.6996,-73.9471
3079,Leonard St & Grand St,40.711,-73.9471
3454,Leonard St & Maujer St,40.7104,-73.9471
3563,28 St & 36 Ave,40.7572,-73.9327
3408,Congress St & Clinton St,40.6882,-73.9952
3635,W 36 St & 9 Ave,40.7546,-73.9952
3495,E 114 St & 1 Ave,40.7946,-73.9363
3505,Lexington Ave & E 127 St,40.8057,-73.9363
3564,21 St & 36 Ave,40.7602,-73.9363
478,11 Ave & W 41 St,40.7603,-73.9988
311,Norfolk St & Broome St,40.7172,-73.988
422,W 59 St & 10 Ave,40.7705,-73.988
3463,E 16 St & Irving Pl,40.7354,-73.988
173,Broadway & W 49 St,40.7606,-73.9844
357,E 11 St & Broadway,40.7326,-73.9916
379,W 31 St & 7 Ave,40.7492,-73.9916
3434,W 88 St & West End Ave,40.7903,-73.9772
3532,Ditmars Blvd & 19 St,40.7814,-73.9183
3357,W 106 St & Amsterdam Ave,40.8008,-73.9664
419,Carlton Ave & Park Ave,40.6958,-73.9736
3354,3 St & Prospect Park West,40.6681,-73.9736
2022,E 59 St & Sutton Pl,40.7585,-73.9592
2022,E 60 St & York Ave,40.7591,-73.9592
3374,Central Park North & Adam Clayton Powell Blvd,40.7995,-73.9556
3088,Union Ave & Jackson St,40.7161,-73.952
3500,E 115 St & Madison Ave,40.7989,-73.9448
264,Maiden Ln & Pearl St,40.7071,-74.0073
434,9 Ave & W 18 St,40.7432,-74.0037
3064,Myrtle Ave & Lewis Ave,40.6968,-73.9376
3396,Clinton St & 4 Place,40.6784,-74.0001
3308,Kane St & Clinton St,40.6862,-73.9965
295,Pike St & E Broadway,40.7141,-73.9929
461,E 20 St & 2 Ave,40.7359,-73.9821
3405,5 St & 6 Ave,40.6705,-73.9821
160,E 37 St & Lexington Ave,40.7482,-73.9785
243,Fulton St & Rockwell Pl,40.688,-73.9785
3339,Berkeley Pl & 6 Ave,40.6765,-73.9785
3417,Baltic St & 5 Ave,40.6796,-73.9785
241,DeKalb Ave & S Portland Ave,40.6898,-73.9749
421,Clermont Ave & Park Ave,40.6957,-73.9713
443,Bedford Ave & S 9 St,40.7085,-73.9641
443,Bedford Ave & S 9th St,40.7085,-73.9641
3139,E 72 St & Park Ave,40.7712,-73.9641
3536,W 116 St & Broadway,40.8082,-73.9641
3601,Sterling St & Bedford Ave,40.6627,-73.9569
3002,South End Ave & Liberty St,40.7115,-74.0158
3305,E 91 St & 2 Ave,40.7811,-73.9497
3615,44 Dr & 21 St,40.748,-73.9461
238,Bank St & Washington St,40.7362,-74.0086
347,Greenwich St & W Houston St,40.7288,-74.0086
3392,Commerce St & Van Brunt St,40.6812,-74.0086
3493,E 118 St & 3 Ave,40.7991,-73.9389
350,Clinton St & Grand St,40.7156,-73.987
3317,10 St & 5 Ave,40.6686,-73.987
412,Forsyth St & Canal St,40.7158,-73.9942
435,W 21 St & 6 Ave,40.7417,-73.9942
480,W 53 St & 10 Ave,40.7667,-73.9906
3409,Bergen St & Smith St,40.6867,-73.9906
517,E 41 St & Madison Ave,40.7521,-73.9798
3443,W 52 St & 6 Ave,40.7613,-73.9798
485,W 37 St & 5 Ave,40.7504,-73.9834
500,Broadway & W 51 St,40.7623,-73.9834
3576,Park Pl & Vanderbilt Ave,40.6767,-73.969
3616,Steinway St & 28 Ave,40.7656,-73.9137
3165,Central Park West & W 72 St,40.7758,-73.9762
3138,E 77 St & Park Ave,40.7744,-73.9618
3587,Carroll St & Washington Ave,40.6687,-73.9618
244,Willoughby Ave & Hall St,40.692,-73.9654
363,West Thames St,40.7083,-74.0171
3077,Stagg St & Union Ave,40.7088,-73.951
3141,1 Ave & E 68 St,40.765,-73.9582
336,Sullivan St & Washington Sq,40.7305,-73.9991
3386,1 Pl & Clinton St,40.681,-73.9991
3074,Montrose Ave & Bushwick Ave,40.7077,-73.9402
331,Pike St & Monroe St,40.7117,-73.9919
361,Allen St & Hester St,40.7161,-73.9919
473,Rivington St & Chrystie St,40.7211,-73.9919
216,Columbia Heights & Cranberry St,40.7004,-73.9955
3595,35 St & Broadway,40.7603,-73.9222
325,E 19 St & 3 Ave,40.7362,-73.9847
3356,Amsterdam Ave & W 66 St,40.7747,-73.9847
3293,W 92 St & Broadway,40.7921,-73.9739
164,E 47 St & 2 Ave,40.7532,-73.9703
2023,E 55 St & Lexington Ave,40.7597,-73.9703
3172,W 74 St & Columbus Ave,40.7786,-73.9775
3583,Eastern Pkwy & Washington Ave,40.6716,-73.9631
3122,48 Ave & 5 St,40.7444,-73.9559
3087,Metropolitan Ave & Meeker Ave,40.7141,-73.9523
3521,Lenox Ave & W 111 St,40.7988,-73.9523
147,Greenwich St & Warren St,40.7154,-74.0112
3344,Pioneer St & Van Brunt St,40.679,-74.0112
3461,Murray St & Greenwich St,40.7149,-74.0112
3557,40 Ave & 9 St,40.7574,-73.9451
3333,Columbia St & Lorraine St,40.6747,-74.0076
3560,28 St & 38 Ave,40.7549,-73.9343
3577,34 Ave & 21 St,40.7628,-73.9343
2009,Catherine St & Monroe St,40.7112,-73.9968
3017,NYCBS Depot - FAR,40.7515,-73.9968
3504,E 123 St & Lexington Ave,40.8029,-73.9379
233,Joralemon St & Adams St,40.6925,-73.9896
402,Broadway & E 22 St,40.7403,-73.9896
3329,Degraw St & Smith St,40.6829,-73.9932
491,E 24 St & Park Ave S,40.741,-73.986
3632,E 12 St & Avenue B,40.728,-73.9788
3346,Berkeley Pl & 7 Ave,40.6751,-73.9752
3415,Prospect Pl & 6 Ave,40.6793,-73.9752
3558,Bergen St & Vanderbilt Ave,40.6794,-73.968
3336,E 97 St & Madison Ave,40.7878,-73.9536
3353,Reed St & Van Brunt St,40.6748,-74.0161
3072,Leonard St & Boerum St,40.7058,-73.9464
360,William St & Pine St,40.7072,-74.0089
437,Macon St & Nostrand Ave,40.681,-73.95
3622,E 128 St & Madison Ave,40.8076,-73.9392
279,Peck Slip & Front Street,40.7079,-74.0017
279,Peck Slip & Front St,40.7079,-74.0017
3428,8 Ave & W 16 St,40.741,-74.0017
3467,W Broadway & Spring Street,40.7249,-74.0017
3221,47 Ave & 31 St,40.743,-73.9356
161,LaGuardia Pl & W 3 St,40.7292,-73.9981
306,Cliff St & Fulton St,40.7082,-74.0053
492,W 33 St & 7 Ave,40.7502,-73.9909
3263,Cooper Square & E 7 St,40.7292,-73.9909
253,W 13 St & 5 Ave,40.7354,-73.9945
301,E 2 St & Avenue B,40.7222,-73.9837
484,W 44 St & 5 Ave,40.755,-73.9801
520,W 52 St & 5 Ave,40.7599,-73.9765
137,E 56 St & Madison Ave,40.7616,-73.9729
3289,W 90 St & Amsterdam Ave,40.7902,-73.9729
3459,E 53 St & 3 Ave,40.7576,-73.9693
3092,Berry St & N 8 St,40.719,-73.9585
3093,N 6 St & Bedford Ave,40.7175,-73.9585
3343,W 107 St & Columbus Ave,40.7998,-73.9621
3056,Kosciuszko St & Nostrand Ave,40.6907,-73.9513
3249,Verona Pl & Fulton St,40.6804,-73.9477
329,Greenwich St & N Moore St,40.7204,-74.0102
417,Barclay St & Church St,40.7129,-74.0102
3650,8D Mobile 01,45.5059,-73.5691
3047,Halsey St & Tompkins Ave,40.6824,-73.9441
3070,McKibbin St & Manhattan Ave,40.7051,-73.9441
3502,Lexington Ave & E 111 St,40.7954,-73.9441
128,MacDougal St & Prince St,40.7271,-74.003
388,W 26 St & 10 Ave,40.7497,-74.003
3497,Pleasant Ave & E 116 St,40.795,-73.9333
314,Montague St & Clinton St,40.6942,-73.9922
445,E 10 St & Avenue A,40.7274,-73.9814
486,Broadway & W 29 St,40.7462,-73.9886
513,W 56 St & 10 Ave,40.7683,-73.9886
2021,W 45 St & 8 Ave,40.7593,-73.9886
3524,19 St & 24 Ave,40.7775,-73.9225
3371,4 Ave & 2 St,40.6746,-73.985
3525,23 Ave & 27 St,40.7762,-73.9153
3163,Central Park West & W 68 St,40.7734,-73.9778
3623,W 120 St & Claremont Ave,40.8109,-73.9634
3359,E 68 St & Madison Ave,40.7692,-73.967
3383,Cathedral Pkwy & Broadway,40.8042,-73.967
3109,Banker St & Meserole Ave,40.7261,-73.9562
3447,E 71 St & 1 Ave,40.767,-73.9562
3569,Franklin Ave & St Marks Ave,40.6758,-73.9562
3078,Broadway & Roebling St,40.7093,-73.9598
3099,Leonard St & Manhattan Ave,40.7215,-73.949
3393,Richards St & Delavan St,40.6794,-74.0079
3180,Brooklyn Bridge Park - Pier 2,40.6988,-73.9971
279,Sands St & Gold St,40.6999,-73.9827
3159,W 67 St & Broadway,40.7749,-73.9827
307,Canal St & Rutgers St,40.7143,-73.9899
3597,43 St & Broadway,40.7577,-73.9166
282,Kent Ave & S 11 St,40.7083,-73.9683
3544,Underhill Ave & Pacific St,40.6805,-73.9647
228,E 48 St & 3 Ave,40.7546,-73.9719
3314,W 95 St & Broadway,40.7938,-73.9719
3292,5 Ave & E 93 St,40.7858,-73.9575
3596,Sullivan Pl & Bedford Ave,40.6642,-73.9575
3613,Center Blvd & 48 Ave,40.745,-73.9575
3065,Union Ave & Wallabout St,40.7003,-73.9503
3363,E 102 St & Park Ave,40.7905,-73.9503
3347,Van Brunt St & Wolcott St,40.6773,-74.0128
3113,Greenpoint Ave & Manhattan Ave,40.7303,-73.9539
3604,Rogers Ave & Sterling St,40.6631,-73.9539
3181,Soissons Landing,40.6926,-74.0164
3106,Driggs Ave & N Henry St,40.7233,-73.9431
3529,Lenox Ave & W 130 St,40.8108,-73.9431
330,Reade St & Broadway,40.7145,-74.0056
509,9 Ave & W 22 St,40.7455,-74.002
512,W 29 St & 9 Ave,40.7501,-73.9984
3607,31 Ave & 14 St,40.7682,-73.9323
251,Mott St & Prince St,40.7232,-73.9948
521,8 Ave & W 31 St,40.7504,-73.9948
3382,Carroll St & Smith St,40.6806,-73.9948
475,E 15 St & Irving Pl,40.7352,-73.9876
475,E 16 St & Irving Pl,40.7352,-73.9876
3410,Dean St & Hoyt St,40.6864,-73.9876
3310,14 St & 7 Ave,40.6638,-73.984
322,Clinton St & Tillary St,40.6962,-73.9912
510,W 51 St & 6 Ave,40.7607,-73.9804
3234,E 40 St & Madison Ave,40.7516,-73.9804
3455,Schermerhorn St & 3 Ave,40.6868,-73.9804
3598,Newton Rd & 44 St,40.7596,-73.9143
2012,E 27 St & 1 Ave,40.7394,-73.9768
3416,7 Ave & Park Pl,40.6776,-73.9732
3168,Central Park West & W 85 St,40.7847,-73.9696
384,Fulton St & Waverly Ave,40.6832,-73.966
385,E 55 St & 2 Ave,40.758,-73.966
3637,Fulton St & Waverly Ave,40.6832,-73.966
3549,Grand Ave & Bergen St,40.678,-73.9624
289,Monroe St & Classon Ave,40.6846,-73.9588
3546,Pacific St & Classon Ave,40.6792,-73.9588
3590,Carroll St & Franklin Ave,40.6679,-73.9588
3150,E 85 St & York Ave,40.7754,-73.948
3449,Eckford St & Engert Ave,40.7215,-73.948
276,Duane St & Greenwich St,40.7175,-74.0105
3540,Morningside Ave & W 123 St,40.81,-73.9552
268,Howard St & Centre St,40.7191,-73.9997
355,Bayard St & Baxter St,40.716,-73.9997
157,Henry St & Atlantic Ave,40.6909,-73.9961
3173,Riverside Blvd & W 67 St,40.7775,-73.9889
271,Ashland Pl & Hanson Pl,40.6853,-73.9781
545,E 23 St & 1 Ave,40.7365,-73.9781
3233,E 48 St & 5 Ave,40.7572,-73.9781
457,Broadway & W 58 St,40.767,-73.9817
3349,Grand Army Plaza & Plaza St West,40.673,-73.9709
3548,Pacific St & Bedford Ave,40.6778,-73.9529
3571,Bedford Ave & Bergen St,40.6764,-73.9529
3541,Amsterdam Ave & W 125 St,40.8134,-73.9565
3578,Park Pl & Franklin Ave,40.6742,-73.9565
3054,Greene Ave & Throop Ave,40.6895,-73.9421
387,Centre St & Chambers St,40.7127,-74.0046
3043,Lewis Ave & Decatur St,40.6815,-73.9349
3499,2 Ave & E 122 St,40.8007,-73.9349
217,Old Fulton St,40.7028,-73.9938
229,Great Jones St,40.7274,-73.9938
3298,Warren St & Court St,40.6864,-73.9938
3044,Albany Ave & Fulton St,40.68,-73.9385
300,Shevchenko Pl & E 7 St,40.7281,-73.9902
300,Shevchenko Pl & E 6 St,40.7281,-73.9902
430,York St & Jay St,40.7015,-73.9866
465,Broadway & W 41 St,40.7551,-73.9866
243,Fulton St & Rockwell Pl,40.6882,-73.9794
546,E 30 St & Park Ave S,40.7444,-73.983
3232,Bond St & Fulton St,40.6896,-73.983
3412,Pacific St & Nevins St,40.6854,-73.983
3103,N 11 St & Wythe Ave,40.7215,-73.9578
3112,Milton St & Franklin St,40.7291,-73.9578
3342,Pioneer St & Richards St,40.6778,-74.0095
3130,21 St & Queens Plaza North,40.7533,-73.9434
280,E 10 St & 5 Ave,40.7333,-73.9951
3506,Lexington Ave & E 120 St,40.8013,-73.9398
386,Centre St & Worth St,40.7149,-74.0023
2010,Grand St & Greene St,40.7217,-74.0023
3397,Court St & Nelson St,40.6764,-73.9987
265,Stanton St & Chrystie St,40.7223,-73.9915
407,Henry St & Poplar St,40.7005,-73.9915
449,W 52 St & 9 Ave,40.7646,-73.9879
450,W 49 St & 8 Ave,40.7623,-73.9879
3530,Crescent St & Ditmars Blvd,40.7787,-73.9146
528,2 Ave & E 31 St,40.7429,-73.9771
3177,W 84 St & Broadway,40.7868,-73.9771
3222,Hanson Pl & St Felix St,40.6852,-73.9771
3287,W 87 St & West End Ave,40.7903,-73.9771
326,E 11 St & 1 Ave,40.7295,-73.9843
390,Duffield St & Willoughby St,40.6922,-73.9843
3420,Douglass St & 3 Ave,40.6802,-73.9843
144,Nassau St & Navy St,40.6984,-73.9807
343,Clinton Ave & Flushing Ave,40.6979,-73.9699
242,Flushing Ave & Carlton Ave,40.6979,-73.9735
3533,St. Nicholas Ave & W 126 St,40.8114,-73.9519
3036,8D OPS 01,40.8809,-73.8966
3014,3969.TEMP (Bike The Branches - Central Branch),40.7229,-73.9591
3014,E.T. Bike-In Movie Valet Station ,40.7229,-73.9591
3153,E 71 St & 2 Ave,40.7682,-73.9591
3241,Monroe St & Tompkins Ave,40.6862,-73.9447
376,John St & William St,40.7086,-74.0072
3215,JSQ Don't Use,0,0
3240,NYCBS Depot BAL - DYR,0,0
3248,LPI Facility,0,0
3446,NYCBS Depot - STY - Valet Scan,0,0
3480,WS Don't Use,0,0
3633,333 Johnson TEST 1,0,0
3440,Fulton St & Adams St,40.6924,-73.9895
143,Clinton St & Joralemon St,40.6924,-73.9934
3058,Lewis Ave & Kosciuszko St,40.6924,-73.9371
323,Lawrence St & Willoughby St,40.6924,-73.9863
508,W 46 St & 11 Ave,40.7634,-73.9967
3592,Crescent St & Broadway,40.7634,-73.9286
352,W 56 St & 6 Ave,40.7634,-73.9772
469,Broadway & W 53 St,40.7634,-73.9827
250,Lafayette St & Jersey St,40.7246,-73.9957
250,Lafayette St & Jersey St N,40.7246,-73.9957
3265,E 2 St & 2 Ave,40.7246,-73.9894
3265,E 2 St & 2 Ave E,40.7246,-73.9894
519,Pershing Square N,40.7519,-73.9777
519,Pershing Square North,40.7519,-73.9777
3620,11 St & 43 Ave,40.7519,-73.9479
3654,31 St & Northern Blvd,40.7519,-73.9335
3098,Leonard St & Bayard St,40.7193,-73.9486
3095,Graham Ave & Herbert St,40.7193,-73.945
3197,Hs Don't Use,40.7193,-74.0342
400,Pitt St & Stanton St,40.7193,-73.9818
3370,78 St & 2 Ave,40.7728,-73.9558
3370,E 78 St & 2 Ave,40.7728,-73.9558
3151,E 81 St & York Ave,40.7728,-73.9499
3137,5 Ave & E 73 St,40.7728,-73.9669
369,Washington Pl & 6 Ave,40.7322,-74.0003
483,E 12 St & 3 Ave,40.7322,-73.9889
504,1 Ave & E 15 St,40.7322,-73.9817
504,1 Ave & E 16 St,40.7322,-73.9817
521,8 Ave & W 31 St,40.751,-73.9944
521,8 Ave & W 31 St N,40.751,-73.9944
3555,28 St & 41 Ave,40.751,-73.938
267,Broadway & W 36 St,40.751,-73.9877
3476,Norman Ave & Leonard St,40.7258,-73.9507
339,Avenue D & E 12 St,40.7258,-73.9742
3111,Norman Ave & Leonard St - 2,40.7258,-73.9506
3111,Norman Ave & Leonard St,40.7258,-73.9506
3240,NYCBS Depot BAL - DYR,40.759,-73.9939
3223,E 55 St & 3 Ave,40.759,-73.9687
3236,W 42 St & Dyer Ave,40.759,-73.9938
3236,PABT Valet,40.759,-73.9938
